1,01,02,LLC FFFFFFFF-FF7F7FFF-FFFFFFFF-FFFFFFFF-FFFFFF79*3E
$GNTXT,01,01,02,RF0 dev ok*04
$GNRMC,,V,,,,,,,,,,N*4D
$GNVTG,,,,,,,,,N*2E
$GPGGA,,,,,,0,00,99.99,,,,,,*56
$GNGSA,A,1,,,,,,,,,,,,,99.99,99.99,99.99*2E
$GNGSA,A,1,,,,,,,,,,,,,99.99,99.99,99.99*2E
$GPGSV,1,1,00*79
$GLGSV,1,1,00*65
$GNGLL,,,,,,V,N*7A
$GNTXT,01,01,02,ANTSTATUS=INIT*3B
$GNRMC,,V,,,,,,,,,,N*4D
$GNVTG,,,,,,,,,N*2E
$GPGGA,,,,,,0,00,99.99,,,,,,*56
$GNGSA,A,1,,,,,,,,,,,,,99.99,99.99,99.99*2E
$GNGSA,A,1,,,,,,,,,,,,,99.99,99.99,99.99*2E
$GPGSV,1,1,00*79
$GLGSV,1,1,00*65
$GNGLL,,,,,,V,N*7A
$GNTXT,01,01,02,ANTSTATUS=OK*25
$GNRMC,,V,,,,,,,,,,N*4D
$GNVTG,,,,,,,,,N*2E
$GPGGA,,,,,,0,00,99.99,,,,,,*56
$GNGSA,A,1,,,,,,,,,,,,,99.99,99.99,99.99*2E
$GNGSA,A,1,,,,,,,,,,,,,99.99,99.99,99.99*2E
$GPGSV,1,1,00*79
$GLGSV,1,1,00*65
$GNGLL,,,,,,V,N*7A
$GNRMC,,V,,,,,,,,,,N*4D
$GNVTG,,,,,,,,,N*2E
$GPGGA,,,,,,0,00,99.99,,,,,,*56
$GNGSA,A,1,,,,,,,,,,,,,99.99,99.99,99.99*2E
$GNGSA,A,1,,,,,,,,,,,,,99.99,99.99,99.99*2E
$GPGSV,1,1,00*79
$GLGSV,1,1,00*65
$GNGLL,,,,,,V,N*7A
$GNRMC,,V,,,,,,,,,,N*4D
$GNVTG,,,,,,,,,N*2E
$GPGGA,,,,,,0,00,99.99,,,,,,*56
$GNGSA,A,1,,,,,,,,,,,,,99.99,99.99,99.99*2E
$GNGSA,A,1,,,,,,,,,,,,,99.99,99.99,99.99*2E
$GPGSV,1,1,00*79
$GLGSV,1,1,00*65
$GNGLL,,,,,,V,N*7A
$GNRMC,,V,,,,,,,,,,N*4D
$GNVTG,,,,,,,,,N*2E
$GPGGA,,,,,,0,00,99.99,,,,,,*56
$GNGSA,A,1,,,,,,,,,,,,,99.99,99.99,99.99*2E
$GNGSA,A,1,,,,,,,,,,,,,99.99,99.99,99.99*2E
$GPGSV,1,1,00*79
$GLGSV,1,1,00*65
$GNGLL,,,,,,V,N*7A
$GNRMC,,V,,,,,,,,,,N*4D
$GNVTG,,,,,,,,,N*2E
$GPGGA,,,,,,0,00,99.99,,,,,,*56
$GNGSA,A,1,,,,,,,,,,,,,99.99,99.99,99.99*2E
$GNGSA,A,1,,,,,,,,,,,,,99.99,99.99,99.99*2E
$GPGSV,1,1,00*79
$GLGSV,1,1,00*65
$GNGLL,,,,,,V,N*7A
$GNRMC,,V,,,,,,,,,,N*4D
$GNVTG,,,,,,,,,N*2E
$GPGGA,,,,,,0,00,99.99,,,,,,*56
$GNGSA,A,1,,,,,,,,,,,,,99.99,99.99,99.99*2E
$GNGSA,A,1,,,,,,,,,,,,,99.99,99.99,99.99*2E
$GPGSV,1,1,00*79
$GLGSV,1,1,00*65
$GNGLL,,,,,,V,N*7A
$GNRMC,,V,,,,,,,,,,N*4D
$GNVTG,,,,,,,,,N*2E
$GPGGA,,,,,,0,00,99.99,,,,,,*56
$GNGSA,A,1,,,,,,,,,,,,,99.99,99.99,99.99*2E
$GNGSA,A,1,,,,,,,,,,,,,99.99,99.99,99.99*2E
$GPGSV,1,1,00*79
$GLGSV,1,1,00*65
$GNGLL,,,,,,V,N*7A
$GNRMC,,V,,,,,,,,,,N*4D
$GNVTG,,,,,,,,,N*2E
$GPGGA,,,,,,0,00,99.99,,,,,,*56
$GNGSA,A,1,,,,,,,,,,,,,99.99,99.99,99.99*2E
$GNGSA,A,1,,,,,,,,,,,,,99.99,99.99,99.99*2E
$GPGSV,1,1,00*79
$GLGSV,1,1,00*65
$GNGLL,,,,,,V,N*7A
$GNRMC,,V,,,,,,,,,,N*4D
$GNVTG,,,,,,,,,N*2E
$GPGGA,,,,,,0,00,99.99,,,,,,*56
$GNGSA,A,1,,,,,,,,,,,,,99.99,99.99,99.99*2E
$GNGSA,A,1,,,,,,,,,,,,,99.99,99.99,99.99*2E
$GPGSV,1,1,00*79
$GLGSV,1,1,00*65
$GNGLL,,,,,,V,N*7A
$GNRMC,,V,,,,,,,,,,N*4D
$GNVTG,,,,,,,,,N*2E
$GPGGA,,,,,,0,00,99.99,,,,,,*56
$GNGSA,A,1,,,,,,,,,,,,,99.99,99.99,99.99*2E
$GNGSA,A,1,,,,,,,,,,,,,99.99,99.99,99.99*2E
$GPGSV,1,1,00*79
$GLGSV,1,1,00*65
$GNGLL,,,,,,V,N*7A
$GNRMC,,V,,,,,,,,,,N*4D
$GNVTG,,,,,,,,,N*2E
$GPGGA,,,,,,0,00,99.99,,,,,,*56
$GNGSA,A,1,,,,,,,,,,,,,99.99,99.99,99.99*2E
$GNGSA,A,1,,,,,,,,,,,,,99.99,99.99,99.99*2E
$GPGSV,1,1,00*79
$GLGSV,1,1,00*65
$GNGLL,,,,,,V,N*7A
$GNRMC,,V,,,,,,,,,,N*4D
$GNVTG,,,,,,,,,N*2E
$GPGGA,,,,,,0,00,99.99,,,,,,*56
$GNGSA,A,1,,,,,,,,,,,,,99.99,99.99,99.99*2E
$GNGSA,A,1,,,,,,,,,,,,,99.99,99.99,99.99*2E
$GPGSV,1,1,00*79
$GLGSV,1,1,00*65
$GNGLL,,,,,,V,N*7A
$GNRMC,,V,,,,,,,,,,N*4D
$GNVTG,,,,,,,,,N*2E
$GPGGA,,,,,,0,00,99.99,,,,,,*56
$GNGSA,A,1,,,,,,,,,,,,,99.99,99.99,99.99*2E
$GNGSA,A,1,,,,,,,,,,,,,99.99,99.99,99.99*2E
$GPGSV,1,1,00*79
$GLGSV,1,1,00*65
$GNGLL,,,,,,V,N*7A
$GNRMC,,V,,,,,,,,,,N*4D
$GNVTG,,,,,,,,,N*2E
$GPGGA,,,,,,0,00,99.99,,,,,,*56
$GNGSA,A,1,,,,,,,,,,,,,99.99,99.99,99.99*2E
$GNGSA,A,1,,,,,,,,,,,,,99.99,99.99,99.99*2E
$GPGSV,1,1,00*79
$GLGSV,1,1,00*65
$GNGLL,,,,,,V,N*7A
$GNRMC,,V,,,,,,,,,,N*4D
$GNVTG,,,,,,,,,N*2E
$GPGGA,,,,,,0,00,99.99,,,,,,*56
$GNGSA,A,1,,,,,,,,,,,,,99.99,99.99,99.99*2E
$GNGSA,A,1,,,,,,,,,,,,,99.99,99.99,99.99*2E
$GPGSV,1,1,00*79
$GLGSV,1,1,00*65
$GNGLL,,,,,,V,N*7A
$GNRMC,,V,,,,,,,,,,N*4D
$GNVTG,,,,,,,,,N*2E
$GPGGA,,,,,,0,00,99.99,,,,,,*56
$GNGSA,A,1,,,,,,,,,,,,,99.99,99.99,99.99*2E
$GNGSA,A,1,,,,,,,,,,,,,99.99,99.99,99.99*2E
$GPGSV,1,1,00*79
$GLGSV,1,1,00*65
$GNGLL,,,,,,V,N*7A
$GNRMC,,V,,,,,,,,,,N*4D
$GNVTG,,,,,,,,,N*2E
$GPGGA,,,,,,0,00,99.99,,,,,,*56
$GNGSA,A,1,,,,,,,,,,,,,99.99,99.99,99.99*2E
$GNGSA,A,1,,,,,,,,,,,,,99.99,99.99,99.99*2E
$GPGSV,1,1,00*79
$GLGSV,1,1,00*65
$GNGLL,,,,,,V,N*7A
$GNRMC,,V,,,,,,,,,,N*4D
$GNVTG,,,,,,,,,N*2E
$GPGGA,,,,,,0,00,99.99,,,,,,*56
$GNGSA,A,1,,,,,,,,,,,,,99.99,99.99,99.99*2E
$GNGSA,A,1,,,,,,,,,,,,,99.99,99.99,99.99*2E
$GPGSV,1,1,00*79
$GLGSV,1,1,00*65
$GNGLL,,,,,,V,N*7A
$GNRMC,,V,,,,,,,,,,N*4D
$GNVTG,,,,,,,,,N*2E
$GPGGA,,,,,,0,00,99.99,,,,,,*56
$GNGSA,A,1,,,,,,,,,,,,,99.99,99.99,99.99*2E
$GNGSA,A,1,,,,,,,,,,,,,99.99,99.99,99.99*2E
$GPGSV,1,1,00*79
$GLGSV,1,1,00*65
$GNGLL,,,,,,V,N*7A
$GNRMC,,V,,,,,,,,,,N*4D
$GNVTG,,,,,,,,,N*2E
$GPGGA,,,,,,0,00,99.99,,,,,,*56
$GNGSA,A,1,,,,,,,,,,,,,99.99,99.99,99.99*2E
$GNGSA,A,1,,,,,,,,,,,,,99.99,99.99,99.99*2E
$GPGSV,1,1,00*79
$GLGSV,1,1,00*65
$GNGLL,,,,,,V,N*7A
$GNRMC,,V,,,,,,,,,,N*4D
$GNVTG,,,,,,,,,N*2E
$GPGGA,,,,,,0,00,99.99,,,,,,*56
$GNGSA,A,1,,,,,,,,,,,,,99.99,99.99,99.99*2E
$GNGSA,A,1,,,,,,,,,,,,,99.99,99.99,99.99*2E
$GPGSV,1,1,00*79
$GLGSV,1,1,00*65
$GNGLL,,,,,,V,N*7A
$GNRMC,,V,,,,,,,,,,N*4D
$GNVTG,,,,,,,,,N*2E
$GPGGA,,,,,,0,00,99.99,,,,,,*56
$GNGSA,A,1,,,,,,,,,,,,,99.99,99.99,99.99*2E
$GNGSA,A,1,,,,,,,,,,,,,99.99,99.99,99.99*2E
$GPGSV,1,1,00*79
$GLGSV,1,1,00*65
$GNGLL,,,,,,V,N*7A
$GNRMC,,V,,,,,,,,,,N*4D
$GNVTG,,,,,,,,,N*2E
$GPGGA,,,,,,0,00,99.99,,,,,,*56
$GNGSA,A,1,,,,,,,,,,,,,99.99,99.99,99.99*2E
$GNGSA,A,1,,,,,,,,,,,,,99.99,99.99,99.99*2E
$GPGSV,1,1,00*79
$GLGSV,1,1,00*65
$GNGLL,,,,,,V,N*7A
$GNRMC,,V,,,,,,,,,,N*4D
$GNVTG,,,,,,,,,N*2E
$GPGGA,,,,,,0,00,99.99,,,,,,*56
$GNGSA,A,1,,,,,,,,,,,,,99.99,99.99,99.99*2E
$GNGSA,A,1,,,,,,,,,,,,,99.99,99.99,99.99*2E
$GPGSV,1,1,00*79
$GLGSV,1,1,00*65
$GNGLL,,,,,,V,N*7A
$GNRMC,,V,,,,,,,,,,N*4D
$GNVTG,,,,,,,,,N*2E
$GPGGA,,,,,,0,00,99.99,,,,,,*56
$GNGSA,A,1,,,,,,,,,,,,,99.99,99.99,99.99*2E
$GNGSA,A,1,,,,,,,,,,,,,99.99,99.99,99.99*2E
$GPGSV,1,1,00*79
$GLGSV,1,1,00*65
$GNGLL,,,,,,V,N*7A
$GNRMC,,V,,,,,,,,,,N*4D
$GNVTG,,,,,,,,,N*2E
$GPGGA,,,,,,0,00,99.99,,,,,,*56
$GNGSA,A,1,,,,,,,,,,,,,99.99,99.99,99.99*2E
$GNGSA,A,1,,,,,,,,,,,,,99.99,99.99,99.99*2E
$GPGSV,1,1,00*79
$GLGSV,1,1,00*65
$GNGLL,,,,,,V,N*7A
$GNRMC,,V,,,,,,,,,,N*4D
$GNVTG,,,,,,,,,N*2E
$GPGGA,,,,,,0,00,99.99,,,,,,*56
$GNGSA,A,1,,,,,,,,,,,,,99.99,99.99,99.99*2E
$GNGSA,A,1,,,,,,,,,,,,,99.99,99.99,99.99*2E
$GPGSV,1,1,00*79
$GLGSV,1,1,00*65
$GNGLL,,,,,,V,N*7A
$GNRMC,,V,,,,,,,,,,N*4D
$GNVTG,,,,,,,,,N*2E
$GPGGA,,,,,,0,00,99.99,,,,,,*56
$GNGSA,A,1,,,,,,,,,,,,,99.99,99.99,99.99*2E
$GNGSA,A,1,,,,,,,,,,,,,99.99,99.99,99.99*2E
$GPGSV,1,1,00*79
$GLGSV,1,1,00*65
$GNGLL,,,,,,V,N*7A
$GNRMC,,V,,,,,,,,,,N*4D
$GNVTG,,,,,,,,,N*2E
$GPGGA,,,,,,0,00,99.99,,,,,,*56
$GNGSA,A,1,,,,,,,,,,,,,99.99,99.99,99.99*2E
$GNGSA,A,1,,,,,,,,,,,,,99.99,99.99,99.99*2E
$GPGSV,1,1,00*79
$GLGSV,1,1,00*65
$GNGLL,,,,,,V,N*7A
$GNRMC,,V,,,,,,,,,,N*4D
$GNVTG,,,,,,,,,N*2E
$GPGGA,,,,,,0,00,99.99,,,,,,*56
$GNGSA,A,1,,,,,,,,,,,,,99.99,99.99,99.99*2E
$GNGSA,A,1,,,,,,,,,,,,,99.99,99.99,99.99*2E
$GPGSV,1,1,00*79
$GLGSV,1,1,00*65
$GNGLL,,,,,,V,N*7A
$GNRMC,,V,,,,,,,,,,N*4D
$GNVTG,,,,,,,,,N*2E
$GPGGA,,,,,,0,00,99.99,,,,,,*56
$GNGSA,A,1,,,,,,,,,,,,,99.99,99.99,99.99*2E
$GNGSA,A,1,,,,,,,,,,,,,99.99,99.99,99.99*2E
$GPGSV,1,1,00*79
$GLGSV,1,1,00*65
$GNGLL,,,,,,V,N*7A
$GNRMC,,V,,,,,,,,,,N*4D
$GNVTG,,,,,,,,,N*2E
$GPGGA,,,,,,0,00,99.99,,,,,,*56
$GNGSA,A,1,,,,,,,,,,,,,99.99,99.99,99.99*2E
$GNGSA,A,1,,,,,,,,,,,,,99.99,99.99,99.99*2E
$GPGSV,1,1,00*79
$GLGSV,1,1,00*65
$GNGLL,,,,,,V,N*7A
$GNRMC,,V,,,,,,,,,,N*4D
$GNVTG,,,,,,,,,N*2E
$GPGGA,,,,,,0,00,99.99,,,,,,*56
$GNGSA,A,1,,,,,,,,,,,,,99.99,99.99,99.99*2E
$GNGSA,A,1,,,,,,,,,,,,,99.99,99.99,99.99*2E
$GPGSV,1,1,00*79
$GLGSV,1,1,00*65
$GNGLL,,,,,,V,N*7A
$GNRMC,,V,,,,,,,,,,N*4D
$GNVTG,,,,,,,,,N*2E
$GPGGA,,,,,,0,00,99.99,,,,,,*56
$GNGSA,A,1,,,,,,,,,,,,,99.99,99.99,99.99*2E
$GNGSA,A,1,,,,,,,,,,,,,99.99,99.99,99.99*2E
$GPGSV,1,1,00*79
$GLGSV,1,1,00*65
$GNGLL,,,,,,V,N*7A
$GNRMC,,V,,,,,,,,,,N*4D
$GNVTG,,,,,,,,,N*2E
$GPGGA,,,,,,0,00,99.99,,,,,,*56
$GNGSA,A,1,,,,,,,,,,,,,99.99,99.99,99.99*2E
$GNGSA,A,1,,,,,,,,,,,,,99.99,99.99,99.99*2E
$GPGSV,1,1,00*79
$GLGSV,1,1,00*65
$GNGLL,,,,,,V,N*7A
$GNRMC,,V,,,,,,,,,,N*4D
$GNVTG,,,,,,,,,N*2E
$GPGGA,,,,,,0,00,99.99,,,,,,*56
$GNGSA,A,1,,,,,,,,,,,,,99.99,99.99,99.99*2E
$GNGSA,A,1,,,,,,,,,,,,,99.99,99.99,99.99*2E
$GPGSV,1,1,00*79
$GLGSV,1,1,00*65
$GNGLL,,,,,,V,N*7A
$GNRMC,,V,,,,,,,,,,N*4D
$GNVTG,,,,,,,,,N*2E
$GPGGA,,,,,,0,00,99.99,,,,,,*56
$GNGSA,A,1,,,,,,,,,,,,,99.99,99.99,99.99*2E
$GNGSA,A,1,,,,,,,,,,,,,99.99,99.99,99.99*2E
$GPGSV,1,1,00*79
$GLGSV,1,1,00*65
$GNGLL,,,,,,V,N*7A
$GNRMC,,V,,,,,,,,,,N*4D
$GNVTG,,,,,,,,,N*2E
$GPGGA,,,,,,0,00,99.99,,,,,,*56
$GNGSA,A,1,,,,,,,,,,,,,99.99,99.99,99.99*2E
$GNGSA,A,1,,,,,,,,,,,,,99.99,99.99,99.99*2E
$GPGSV,1,1,00*79
$GLGSV,1,1,00*65
$GNGLL,,,,,,V,N*7A
$GNRMC,,V,,,,,,,,,,N*4D
$GNVTG,,,,,,,,,N*2E
$GPGGA,,,,,,0,00,99.99,,,,,,*56
$GNGSA,A,1,,,,,,,,,,,,,99.99,99.99,99.99*2E
$GNGSA,A,1,,,,,,,,,,,,,99.99,99.99,99.99*2E
$GPGSV,1,1,00*79
$GLGSV,1,1,00*65
$GNGLL,,,,,,V,N*7A
$GNRMC,,V,,,,,,,,,,N*4D
$GNVTG,,,,,,,,,N*2E
$GPGGA,,,,,,0,00,99.99,,,,,,*56
$GNGSA,A,1,,,,,,,,,,,,,99.99,99.99,99.99*2E
$GNGSA,A,1,,,,,,,,,,,,,99.99,99.99,99.99*2E
$GPGSV,1,1,00*79
$GLGSV,1,1,00*65
$GNGLL,,,,,,V,N*7A
$GNRMC,,V,,,,,,,,,,N*4D
$GNVTG,,,,,,,,,N*2E
$GPGGA,,,,,,0,00,99.99,,,,,,*56
$GNGSA,A,1,,,,,,,,,,,,,99.99,99.99,99.99*2E
$GNGSA,A,1,,,,,,,,,,,,,99.99,99.99,99.99*2E
$GPGSV,1,1,00*79
$GLGSV,1,1,00*65
$GNGLL,,,,,,V,N*7A
$GNRMC,,V,,,,,,,,,,N*4D
$GNVTG,,,,,,,,,N*2E
$GPGGA,,,,,,0,00,99.99,,,,,,*56
$GNGSA,A,1,,,,,,,,,,,,,99.99,99.99,99.99*2E
$GNGSA,A,1,,,,,,,,,,,,,99.99,99.99,99.99*2E
$GPGSV,1,1,00*79
$GLGSV,1,1,00*65
$GNGLL,,,,,,V,N*7A
$GNRMC,,V,,,,,,,,,,N*4D
$GNVTG,,,,,,,,,N*2E
$GPGGA,,,,,,0,00,99.99,,,,,,*56
$GNGSA,A,1,,,,,,,,,,,,,99.99,99.99,99.99*2E
$GNGSA,A,1,,,,,,,,,,,,,99.99,99.99,99.99*2E
$GPGSV,1,1,00*79
$GLGSV,1,1,00*65
$GNGLL,,,,,,V,N*7A
$GNRMC,,V,,,,,,,,,,N*4D
$GNVTG,,,,,,,,,N*2E
$GPGGA,,,,,,0,00,99.99,,,,,,*56
$GNGSA,A,1,,,,,,,,,,,,,99.99,99.99,99.99*2E
$GNGSA,A,1,,,,,,,,,,,,,99.99,99.99,99.99*2E
$GPGSV,1,1,01,03,,,19*73
$GLGSV,1,1,00*65
$GNGLL,,,,,,V,N*7A
$GNRMC,,V,,,,,,,,,,N*4D
$GNVTG,,,,,,,,,N*2E
$GPGGA,,,,,,0,00,99.99,,,,,,*56
$GNGSA,A,1,,,,,,,,,,,,,99.99,99.99,99.99*2E
$GNGSA,A,1,,,,,,,,,,,,,99.99,99.99,99.99*2E
$GPGSV,1,1,01,03,,,17*7D
$GLGSV,1,1,00*65
$GNGLL,,,,,,V,N*7A
$GNRMC,,V,,,,,,,,,,N*4D
$GNVTG,,,,,,,,,N*2E
$GPGGA,,,,,,0,00,99.99,,,,,,*56
$GNGSA,A,1,,,,,,,,,,,,,99.99,99.99,99.99*2E
$GNGSA,A,1,,,,,,,,,,,,,99.99,99.99,99.99*2E
$GPGSV,1,1,01,03,,,15*7F
$GLGSV,1,1,00*65
$GNGLL,,,,,,V,N*7A
$GNRMC,,V,,,,,,,,,,N*4D
$GNVTG,,,,,,,,,N*2E
$GPGGA,,,,,,0,00,99.99,,,,,,*56
$GNGSA,A,1,,,,,,,,,,,,,99.99,99.99,99.99*2E
$GNGSA,A,1,,,,,,,,,,,,,99.99,99.99,99.99*2E
$GPGSV,1,1,01,03,,,12*78
$GLGSV,1,1,00*65
$GNGLL,,,,,,V,N*7A
$GNRMC,,V,,,,,,,,,,N*4D
$GNVTG,,,,,,,,,N*2E
$GPGGA,,,,,,0,00,99.99,,,,,,*56
$GNGSA,A,1,,,,,,,,,,,,,99.99,99.99,99.99*2E
$GNGSA,A,1,,,,,,,,,,,,,99.99,99.99,99.99*2E
$GPGSV,1,1,01,03,,,10*7A
$GLGSV,1,1,00*65
$GNGLL,,,,,,V,N*7A
$GNRMC,,V,,,,,,,,,,N*4D
$GNVTG,,,,,,,,,N*2E
$GPGGA,,,,,,0,00,99.99,,,,,,*56
$GNGSA,A,1,,,,,,,,,,,,,99.99,99.99,99.99*2E
$GNGSA,A,1,,,,,,,,,,,,,99.99,99.99,99.99*2E
$GPGSV,1,1,01,03,,,09*72
$GLGSV,1,1,00*65
$GNGLL,,,,,,V,N*7A
$GNRMC,,V,,,,,,,,,,N*4D
$GNVTG,,,,,,,,,N*2E
$GPGGA,,,,,,0,00,99.99,,,,,,*56
$GNGSA,A,1,,,,,,,,,,,,,99.99,99.99,99.99*2E
$GNGSA,A,1,,,,,,,,,,,,,99.99,99.99,99.99*2E
$GPGSV,1,1,01,03,,,08*73
$GLGSV,1,1,00*65
$GNGLL,,,,,,V,N*7A
$GNRMC,,V,,,,,,,,,,N*4D
$GNVTG,,,,,,,,,N*2E
$GPGGA,,,,,,0,00,99.99,,,,,,*56
$GNGSA,A,1,,,,,,,,,,,,,99.99,99.99,99.99*2E
$GNGSA,A,1,,,,,,,,,,,,,99.99,99.99,99.99*2E
$GPGSV,1,1,01,03,,,07*7C
$GLGSV,1,1,00*65
$GNGLL,,,,,,V,N*7A
$GNRMC,,V,,,,,,,,,,N*4D
$GNVTG,,,,,,,,,N*2E
$GPGGA,,,,,,0,00,99.99,,,,,,*56
$GNGSA,A,1,,,,,,,,,,,,,99.99,99.99,99.99*2E
$GNGSA,A,1,,,,,,,,,,,,,99.99,99.99,99.99*2E
$GPGSV,1,1,01,03,,,08*73
$GLGSV,1,1,00*65
$GNGLL,,,,,,V,N*7A
$GNRMC,,V,,,,,,,,,,N*4D
$GNVTG,,,,,,,,,N*2E
$GPGGA,,,,,,0,00,99.99,,,,,,*56
$GNGSA,A,1,,,,,,,,,,,,,99.99,99.99,99.99*2E
$GNGSA,A,1,,,,,,,,,,,,,99.99,99.99,99.99*2E
$GPGSV,1,1,03,03,,,08,08,,,27,09,,,28*7F
$GLGSV,1,1,00*65
$GNGLL,,,,,,V,N*7A
$GNRMC,,V,,,,,,,,,,N*4D
$GNVTG,,,,,,,,,N*2E
$GPGGA,,,,,,0,00,99.99,,,,,,*56
$GNGSA,A,1,,,,,,,,,,,,,99.99,99.99,99.99*2E
$GNGSA,A,1,,,,,,,,,,,,,99.99,99.99,99.99*2E
$GPGSV,1,1,03,03,,,08,08,,,26,09,,,31*76
$GLGSV,1,1,00*65
$GNGLL,,,,,,V,N*7A
$GNRMC,,V,,,,,,,,,,N*4D
$GNVTG,,,,,,,,,N*2E
$GPGGA,,,,,,0,00,99.99,,,,,,*56
$GNGSA,A,1,,,,,,,,,,,,,99.99,99.99,99.99*2E
$GNGSA,A,1,,,,,,,,,,,,,99.99,99.99,99.99*2E
$GPGSV,1,1,03,03,,,08,08,,,26,09,,,31*76
$GLGSV,1,1,00*65
$GNGLL,,,,,,V,N*7A
$GNRMC,,V,,,,,,,,,,N*4D
$GNVTG,,,,,,,,,N*2E
$GPGGA,,,,,,0,00,99.99,,,,,,*56
$GNGSA,A,1,,,,,,,,,,,,,99.99,99.99,99.99*2E
$GNGSA,A,1,,,,,,,,,,,,,99.99,99.99,99.99*2E
$GPGSV,1,1,03,03,,,08,08,,,32,09,,,32*70
$GLGSV,1,1,00*65
$GNGLL,,,,,,V,N*7A
$GNRMC,,V,,,,,,,,,,N*4D
$GNVTG,,,,,,,,,N*2E
$GPGGA,,,,,,0,00,99.99,,,,,,*56
$GNGSA,A,1,,,,,,,,,,,,,99.99,99.99,99.99*2E
$GNGSA,A,1,,,,,,,,,,,,,99.99,99.99,99.99*2E
$GPGSV,1,1,03,03,,,07,08,,,31,09,,,32*7C
$GLGSV,1,1,00*65
$GNGLL,,,,,,V,N*7A
$GNRMC,,V,,,,,,,,,,N*4D
$GNVTG,,,,,,,,,N*2E
$GPGGA,,,,,,0,00,99.99,,,,,,*56
$GNGSA,A,1,,,,,,,,,,,,,99.99,99.99,99.99*2E
$GNGSA,A,1,,,,,,,,,,,,,99.99,99.99,99.99*2E
$GPGSV,1,1,03,03,,,08,08,,,30,09,,,27*76
$GLGSV,1,1,00*65
$GNGLL,,,,,,V,N*7A
$GNRMC,,V,,,,,,,,,,N*4D
$GNVTG,,,,,,,,,N*2E
$GPGGA,,,,,,0,00,99.99,,,,,,*56
$GNGSA,A,1,,,,,,,,,,,,,99.99,99.99,99.99*2E
$GNGSA,A,1,,,,,,,,,,,,,99.99,99.99,99.99*2E
$GPGSV,1,1,03,03,,,08,08,,,29,09,,,28*71
$GLGSV,1,1,00*65
$GNGLL,,,,,,V,N*7A
$GNRMC,,V,,,,,,,,,,N*4D
$GNVTG,,,,,,,,,N*2E
$GPGGA,,,,,,0,00,99.99,,,,,,*56
$GNGSA,A,1,,,,,,,,,,,,,99.99,99.99,99.99*2E
$GNGSA,A,1,,,,,,,,,,,,,99.99,99.99,99.99*2E
$GPGSV,1,1,03,03,,,08,08,,,28,09,,,20*78
$GLGSV,1,1,00*65
$GNGLL,,,,,,V,N*7A
$GNRMC,,V,,,,,,,,,,N*4D
$GNVTG,,,,,,,,,N*2E
$GPGGA,,,,,,0,00,99.99,,,,,,*56
$GNGSA,A,1,,,,,,,,,,,,,99.99,99.99,99.99*2E
$GNGSA,A,1,,,,,,,,,,,,,99.99,99.99,99.99*2E
$GPGSV,1,1,02,08,,,21,09,,,33*79
$GLGSV,1,1,00*65
$GNGLL,,,,,,V,N*7A
$GNRMC,,V,,,,,,,,,,N*4D
$GNVTG,,,,,,,,,N*2E
$GPGGA,,,,,,0,00,99.99,,,,,,*56
$GNGSA,A,1,,,,,,,,,,,,,99.99,99.99,99.99*2E
$GNGSA,A,1,,,,,,,,,,,,,99.99,99.99,99.99*2E
$GPGSV,1,1,02,08,,,24,09,,,21*7F
$GLGSV,1,1,00*65
$GNGLL,,,,,,V,N*7A
$GNRMC,,V,,,,,,,,,,N*4D
$GNVTG,,,,,,,,,N*2E
$GPGGA,,,,,,0,00,99.99,,,,,,*56
$GNGSA,A,1,,,,,,,,,,,,,99.99,99.99,99.99*2E
$GNGSA,A,1,,,,,,,,,,,,,99.99,99.99,99.99*2E
$GPGSV,1,1,02,08,,,26,09,,,20*7C
$GLGSV,1,1,00*65
$GNGLL,,,,,,V,N*7A
$GNRMC,,V,,,,,,,,,,N*4D
$GNVTG,,,,,,,,,N*2E
$GPGGA,,,,,,0,00,99.99,,,,,,*56
$GNGSA,A,1,,,,,,,,,,,,,99.99,99.99,99.99*2E
$GNGSA,A,1,,,,,,,,,,,,,99.99,99.99,99.99*2E
$GPGSV,1,1,02,08,,,27,09,,,23*7E
$GLGSV,1,1,00*65
$GNGLL,,,,,,V,N*7A
$GNRMC,,V,,,,,,,,,,N*4D
$GNVTG,,,,,,,,,N*2E
$GPGGA,,,,,,0,00,99.99,,,,,,*56
$GNGSA,A,1,,,,,,,,,,,,,99.99,99.99,99.99*2E
$GNGSA,A,1,,,,,,,,,,,,,99.99,99.99,99.99*2E
$GPGSV,1,1,02,08,,,29,09,,,24*77
$GLGSV,1,1,00*65
$GNGLL,,,,,,V,N*7A
$GNRMC,,V,,,,,,,,,,N*4D
$GNVTG,,,,,,,,,N*2E
$GPGGA,,,,,,0,00,99.99,,,,,,*56
$GNGSA,A,1,,,,,,,,,,,,,99.99,99.99,99.99*2E
$GNGSA,A,1,,,,,,,,,,,,,99.99,99.99,99.99*2E
$GPGSV,1,1,02,08,,,30,09,,,25*7E
$GLGSV,1,1,00*65
$GNGLL,,,,,,V,N*7A
$GNRMC,,V,,,,,,,,,,N*4D
$GNVTG,,,,,,,,,N*2E
$GPGGA,,,,,,0,00,99.99,,,,,,*56
$GNGSA,A,1,,,,,,,,,,,,,99.99,99.99,99.99*2E
$GNGSA,A,1,,,,,,,,,,,,,99.99,99.99,99.99*2E
$GPGSV,1,1,02,08,,,30,09,,,25*7E
$GLGSV,1,1,00*65
$GNGLL,,,,,,V,N*7A
$GNRMC,,V,,,,,,,,,,N*4D
$GNVTG,,,,,,,,,N*2E
$GPGGA,,,,,,0,00,99.99,,,,,,*56
$GNGSA,A,1,,,,,,,,,,,,,99.99,99.99,99.99*2E
$GNGSA,A,1,,,,,,,,,,,,,99.99,99.99,99.99*2E
$GPGSV,1,1,02,08,,,30,09,,,23*78
$GLGSV,1,1,00*65
$GNGLL,,,,,,V,N*7A
$GNRMC,,V,,,,,,,,,,N*4D
$GNVTG,,,,,,,,,N*2E
$GPGGA,,,,,,0,00,99.99,,,,,,*56
$GNGSA,A,1,,,,,,,,,,,,,99.99,99.99,99.99*2E
$GNGSA,A,1,,,,,,,,,,,,,99.99,99.99,99.99*2E
$GPGSV,1,1,02,08,,,31,09,,,20*7A
$GLGSV,1,1,00*65
$GNGLL,,,,,,V,N*7A
$GNRMC,,V,,,,,,,,,,N*4D
$GNVTG,,,,,,,,,N*2E
$GPGGA,,,,,,0,00,99.99,,,,,,*56
$GNGSA,A,1,,,,,,,,,,,,,99.99,99.99,99.99*2E
$GNGSA,A,1,,,,,,,,,,,,,99.99,99.99,99.99*2E
$GPGSV,1,1,02,08,,,31,09,,,19*70
$GLGSV,1,1,00*65
$GNGLL,,,,,,V,N*7A
$GNRMC,,V,,,,,,,,,,N*4D
$GNVTG,,,,,,,,,N*2E
$GPGGA,,,,,,0,00,99.99,,,,,,*56
$GNGSA,A,1,,,,,,,,,,,,,99.99,99.99,99.99*2E
$GNGSA,A,1,,,,,,,,,,,,,99.99,99.99,99.99*2E
$GPGSV,1,1,02,08,,,31,09,,,17*7E
$GLGSV,1,1,00*65
$GNGLL,,,,,,V,N*7A
$GNRMC,,V,,,,,,,,,,N*4D
$GNVTG,,,,,,,,,N*2E
$GPGGA,,,,,,0,00,99.99,,,,,,*56
$GNGSA,A,1,,,,,,,,,,,,,99.99,99.99,99.99*2E
$GNGSA,A,1,,,,,,,,,,,,,99.99,99.99,99.99*2E
$GPGSV,1,1,02,08,,,31,09,,,16*7F
$GLGSV,1,1,00*65
$GNGLL,,,,,,V,N*7A
$GNRMC,,V,,,,,,,,,,N*4D
$GNVTG,,,,,,,,,N*2E
$GPGGA,,,,,,0,00,99.99,,,,,,*56
$GNGSA,A,1,,,,,,,,,,,,,99.99,99.99,99.99*2E
$GNGSA,A,1,,,,,,,,,,,,,99.99,99.99,99.99*2E
$GPGSV,1,1,02,08,,,30,09,,,14*7C
$GLGSV,1,1,00*65
$GNGLL,,,,,,V,N*7A
$GNRMC,214927.00,V,,,,,,,,,,N*68
$GNVTG,,,,,,,,,N*2E
$GPGGA,214927.00,,,,,0,00,99.99,,,,,,*73
$GNGSA,A,1,,,,,,,,,,,,,99.99,99.99,99.99*2E
$GNGSA,A,1,,,,,,,,,,,,,99.99,99.99,99.99*2E
$GPGSV,1,1,02,08,,,30,09,,,10*78
$GLGSV,1,1,00*65
$GNGLL,,,,,214927.00,V,N*5F
$GNRMC,214928.00,V,,,,,,,,,,N*67
$GNVTG,,,,,,,,,N*2E
$GPGGA,214928.00,,,,,0,00,99.99,,,,,,*7C
$GNGSA,A,1,,,,,,,,,,,,,99.99,99.99,99.99*2E
$GNGSA,A,1,,,,,,,,,,,,,99.99,99.99,99.99*2E
$GPGSV,1,1,02,08,,,31,09,,,11*78
$GLGSV,1,1,00*65
$GNGLL,,,,,214928.00,V,N*50
$GNRMC,214929.00,V,,,,,,,,,,N*66
$GNVTG,,,,,,,,,N*2E
$GPGGA,214929.00,,,,,0,00,99.99,,,,,,*7D
$GNGSA,A,1,,,,,,,,,,,,,99.99,99.99,99.99*2E
$GNGSA,A,1,,,,,,,,,,,,,99.99,99.99,99.99*2E
$GPGSV,1,1,02,08,,,30,09,,,20*7B
$GLGSV,1,1,00*65
$GNGLL,,,,,214929.00,V,N*51
$GNRMC,214930.00,V,,,,,,,,,,N*6E
$GNVTG,,,,,,,,,N*2E
$GPGGA,214930.00,,,,,0,00,99.99,,,,,,*75
$GNGSA,A,1,,,,,,,,,,,,,99.99,99.99,99.99*2E
$GNGSA,A,1,,,,,,,,,,,,,99.99,99.99,99.99*2E
$GPGSV,2,1,05,07,,,39,08,,,23,09,,,23,23,,,30*71
$GPGSV,2,2,05,27,,,37*7D
$GLGSV,1,1,00*65
$GNGLL,,,,,214930.00,V,N*59
$GNRMC,214931.00,V,,,,,,,,,,N*6F
$GNVTG,,,,,,,,,N*2E
$GPGGA,214931.00,,,,,0,00,99.99,,,,,,*74
$GNGSA,A,1,,,,,,,,,,,,,99.99,99.99,99.99*2E
$GNGSA,A,1,,,,,,,,,,,,,99.99,99.99,99.99*2E
$GPGSV,2,1,05,07,,,32,08,,,31,09,,,22,23,,,29*70
$GPGSV,2,2,05,27,,,34*7E
$GLGSV,1,1,00*65
$GNGLL,,,,,214931.00,V,N*58
$GNRMC,214932.00,V,,,,,,,,,,N*6C
$GNVTG,,,,,,,,,N*2E
$GPGGA,214932.00,,,,,0,00,99.99,,,,,,*77
$GNGSA,A,1,,,,,,,,,,,,,99.99,99.99,99.99*2E
$GNGSA,A,1,,,,,,,,,,,,,99.99,99.99,99.99*2E
$GPGSV,2,1,06,07,,,28,08,,,25,09,,,23,16,,,25*76
$GPGSV,2,2,06,23,,,27,27,,,30*7D
$GLGSV,1,1,00*65
$GNGLL,,,,,214932.00,V,N*5B
$GNRMC,214933.00,V,,,,,,,,,,N*6D
$GNVTG,,,,,,,,,N*2E
$GPGGA,214933.00,,,,,0,00,99.99,,,,,,*76
$GNGSA,A,1,,,,,,,,,,,,,99.99,99.99,99.99*2E
$GNGSA,A,1,,,,,,,,,,,,,99.99,99.99,99.99*2E
$GPGSV,2,1,06,07,,,35,08,,,22,09,,,23,16,,,23*7B
$GPGSV,2,2,06,23,,,28,27,,,28*7B
$GLGSV,1,1,00*65
$GNGLL,,,,,214933.00,V,N*5A
$GNRMC,214934.00,V,,,,,,,,,,N*6A
$GNVTG,,,,,,,,,N*2E
$GPGGA,214934.00,,,,,0,00,99.99,,,,,,*71
$GNGSA,A,1,,,,,,,,,,,,,99.99,99.99,99.99*2E
$GNGSA,A,1,,,,,,,,,,,,,99.99,99.99,99.99*2E
$GPGSV,2,1,06,07,,,39,08,,,22,09,,,24,16,,,22*71
$GPGSV,2,2,06,23,,,33,27,,,27*7E
$GLGSV,1,1,00*65
$GNGLL,,,,,214934.00,V,N*5D
$GNRMC,214935.00,V,,,,,,,,,,N*6B
$GNVTG,,,,,,,,,N*2E
$GPGGA,214935.00,,,,,0,00,99.99,,,,,,*70
$GNGSA,A,1,,,,,,,,,,,,,99.99,99.99,99.99*2E
$GNGSA,A,1,,,,,,,,,,,,,99.99,99.99,99.99*2E
$GPGSV,2,1,06,07,,,39,08,,,23,09,,,24,16,,,23*71
$GPGSV,2,2,06,23,,,33,27,,,27*7E
$GLGSV,1,1,00*65
$GNGLL,,,,,214935.00,V,N*5C
$GNRMC,214936.00,V,,,,,,,,,,N*68
$GNVTG,,,,,,,,,N*2E
$GPGGA,214936.00,,,,,0,00,99.99,,,,,,*73
$GNGSA,A,1,,,,,,,,,,,,,99.99,99.99,99.99*2E
$GNGSA,A,1,,,,,,,,,,,,,99.99,99.99,99.99*2E
$GPGSV,2,1,06,07,,,39,08,,,25,09,,,25,16,,,25*70
$GPGSV,2,2,06,23,,,33,27,,,26*7F
$GLGSV,1,1,00*65
$GNGLL,,,,,214936.00,V,N*5F
$GNRMC,214937.00,V,,,,,,,,,,N*69
$GNVTG,,,,,,,,,N*2E
$GPGGA,214937.00,,,,,0,00,99.99,,,,,,*72
$GNGSA,A,1,,,,,,,,,,,,,99.99,99.99,99.99*2E
$GNGSA,A,1,,,,,,,,,,,,,99.99,99.99,99.99*2E
$GPGSV,2,1,06,07,,,39,08,,,25,09,,,25,16,,,26*73
$GPGSV,2,2,06,23,,,33,27,,,26*7F
$GLGSV,1,1,00*65
$GNGLL,,,,,214937.00,V,N*5E
$GNRMC,214938.00,V,,,,,,,,,,N*66
$GNVTG,,,,,,,,,N*2E
$GPGGA,214938.00,,,,,0,00,99.99,,,,,,*7D
$GNGSA,A,1,,,,,,,,,,,,,99.99,99.99,99.99*2E
$GNGSA,A,1,,,,,,,,,,,,,99.99,99.99,99.99*2E
$GPGSV,2,1,06,07,,,39,08,,,26,09,,,26,16,,,27*72
$GPGSV,2,2,06,23,,,34,27,,,26*78
$GLGSV,1,1,00*65
$GNGLL,,,,,214938.00,V,N*51
$GNRMC,214939.00,V,,,,,,,,,,N*67
$GNVTG,,,,,,,,,N*2E
$GPGGA,214939.00,,,,,0,00,99.99,,,,,,*7C
$GNGSA,A,1,,,,,,,,,,,,,99.99,99.99,99.99*2E
$GNGSA,A,1,,,,,,,,,,,,,99.99,99.99,99.99*2E
$GPGSV,2,1,06,07,,,39,08,,,27,09,,,25,16,,,27*70
$GPGSV,2,2,06,23,,,33,27,,,26*7F
$GLGSV,1,1,00*65
$GNGLL,,,,,214939.00,V,N*50
$GNRMC,214940.00,V,,,,,,,,,,N*69
$GNVTG,,,,,,,,,N*2E
$GPGGA,214940.00,,,,,0,00,99.99,,,,,,*72
$GNGSA,A,1,,,,,,,,,,,,,99.99,99.99,99.99*2E
$GNGSA,A,1,,,,,,,,,,,,,99.99,99.99,99.99*2E
$GPGSV,2,1,06,07,,,39,08,,,27,09,,,25,16,,,28*7F
$GPGSV,2,2,06,23,,,33,27,,,26*7F
$GLGSV,1,1,00*65
$GNGLL,,,,,214940.00,V,N*5E
$GNRMC,214941.00,V,,,,,,,,,,N*68
$GNVTG,,,,,,,,,N*2E
$GPGGA,214941.00,,,,,0,00,99.99,,,,,,*73
$GNGSA,A,1,,,,,,,,,,,,,99.99,99.99,99.99*2E
$GNGSA,A,1,,,,,,,,,,,,,99.99,99.99,99.99*2E
$GPGSV,2,1,06,07,,,39,08,,,27,09,,,24,16,,,29*7F
$GPGSV,2,2,06,23,,,33,27,,,26*7F
$GLGSV,1,1,00*65
$GNGLL,,,,,214941.00,V,N*5F
$GNRMC,214942.00,V,,,,,,,,,,N*6B
$GNVTG,,,,,,,,,N*2E
$GPGGA,214942.00,,,,,0,00,99.99,,,,,,*70
$GNGSA,A,1,,,,,,,,,,,,,99.99,99.99,99.99*2E
$GNGSA,A,1,,,,,,,,,,,,,99.99,99.99,99.99*2E
$GPGSV,2,1,06,07,,,39,08,,,27,09,,,25,16,,,29*7E
$GPGSV,2,2,06,23,,,33,27,,,26*7F
$GLGSV,1,1,00*65
$GNGLL,,,,,214942.00,V,N*5C
$GNRMC,214943.00,V,,,,,,,,,,N*6A
$GNVTG,,,,,,,,,N*2E
$GPGGA,214943.00,,,,,0,00,99.99,,,,,,*71
$GNGSA,A,1,,,,,,,,,,,,,99.99,99.99,99.99*2E
$GNGSA,A,1,,,,,,,,,,,,,99.99,99.99,99.99*2E
$GPGSV,2,1,06,07,,,39,08,,,27,09,,,24,16,,,29*7F
$GPGSV,2,2,06,23,,,34,27,,,26*78
$GLGSV,1,1,00*65
$GNGLL,,,,,214943.00,V,N*5D
$GNRMC,214944.00,V,,,,,,,,,,N*6D
$GNVTG,,,,,,,,,N*2E
$GPGGA,214944.00,,,,,0,00,99.99,,,,,,*76
$GNGSA,A,1,,,,,,,,,,,,,99.99,99.99,99.99*2E
$GNGSA,A,1,,,,,,,,,,,,,99.99,99.99,99.99*2E
$GPGSV,2,1,06,07,,,39,08,,,26,09,,,23,16,,,29*79
$GPGSV,2,2,06,23,,,34,27,,,26*78
$GLGSV,1,1,00*65
$GNGLL,,,,,214944.00,V,N*5A
$GNRMC,214945.00,V,,,,,,,,,,N*6C
$GNVTG,,,,,,,,,N*2E
$GPGGA,214945.00,,,,,0,00,99.99,,,,,,*77
$GNGSA,A,1,,,,,,,,,,,,,99.99,99.99,99.99*2E
$GNGSA,A,1,,,,,,,,,,,,,99.99,99.99,99.99*2E
$GPGSV,2,1,06,07,,,39,08,,,26,09,,,22,16,,,30*70
$GPGSV,2,2,06,23,,,34,27,,,26*78
$GLGSV,1,1,00*65
$GNGLL,,,,,214945.00,V,N*5B
$GNRMC,214946.00,V,,,,,,,090317,,,N*63
$GNVTG,,,,,,,,,N*2E
$GPGGA,214946.00,,,,,0,00,99.99,,,,,,*74
$GNGSA,A,1,,,,,,,,,,,,,99.99,99.99,99.99*2E
$GNGSA,A,1,,,,,,,,,,,,,99.99,99.99,99.99*2E
$GPGSV,2,1,06,07,,,39,08,,,26,09,,,23,16,,,29*79
$GPGSV,2,2,06,23,,,33,27,,,27*7E
$GLGSV,1,1,00*65
$GNGLL,,,,,214946.00,V,N*58
$GNRMC,214947.00,V,,,,,,,090317,,,N*62
$GNVTG,,,,,,,,,N*2E
$GPGGA,214947.00,,,,,0,00,99.99,,,,,,*75
$GNGSA,A,1,,,,,,,,,,,,,99.99,99.99,99.99*2E
$GNGSA,A,1,,,,,,,,,,,,,99.99,99.99,99.99*2E
$GPGSV,2,1,06,07,,,39,08,,,26,09,,,23,16,,,29*79
$GPGSV,2,2,06,23,,,33,27,,,27*7E
$GLGSV,1,1,00*65
$GNGLL,,,,,214947.00,V,N*59
$GNRMC,214948.00,V,,,,,,,090317,,,N*6D
$GNVTG,,,,,,,,,N*2E
$GPGGA,214948.00,,,,,0,00,99.99,,,,,,*7A
$GNGSA,A,1,,,,,,,,,,,,,99.99,99.99,99.99*2E
$GNGSA,A,1,,,,,,,,,,,,,99.99,99.99,99.99*2E
$GPGSV,2,1,06,07,,,39,08,,,33,09,,,21,16,,,32*75
$GPGSV,2,2,06,23,,,33,27,,,25*7C
$GLGSV,1,1,00*65
$GNGLL,,,,,214948.00,V,N*56
$GNRMC,214949.00,V,,,,,,,090317,,,N*6C
$GNVTG,,,,,,,,,N*2E
$GPGGA,214949.00,,,,,0,00,99.99,,,,,,*7B
$GNGSA,A,1,,,,,,,,,,,,,99.99,99.99,99.99*2E
$GNGSA,A,1,,,,,,,,,,,,,99.99,99.99,99.99*2E
$GPGSV,2,1,06,07,,,38,08,,,27,09,,,20,16,,,27*74
$GPGSV,2,2,06,23,,,29,27,,,27*75
$GLGSV,1,1,00*65
$GNGLL,,,,,214949.00,V,N*57
$GNRMC,214950.00,V,,,,,,,090317,,,N*64
$GNVTG,,,,,,,,,N*2E
$GPGGA,214950.00,,,,,0,00,99.99,,,,,,*73
$GNGSA,A,1,,,,,,,,,,,,,99.99,99.99,99.99*2E
$GNGSA,A,1,,,,,,,,,,,,,99.99,99.99,99.99*2E
$GPGSV,2,1,06,07,,,37,08,,,26,09,,,20,16,,,27*7A
$GPGSV,2,2,06,23,,,30,27,,,30*7B
$GLGSV,1,1,00*65
$GNGLL,,,,,214950.00,V,N*5F
$GNRMC,214951.00,V,,,,,,,090317,,,N*65
$GNVTG,,,,,,,,,N*2E
$GPGGA,214951.00,,,,,0,00,99.99,,,,,,*72
$GNGSA,A,1,,,,,,,,,,,,,99.99,99.99,99.99*2E
$GNGSA,A,1,,,,,,,,,,,,,99.99,99.99,99.99*2E
$GPGSV,2,1,06,07,,,37,08,,,26,09,,,20,16,,,27*7A
$GPGSV,2,2,06,23,,,30,27,,,29*73
$GLGSV,1,1,00*65
$GNGLL,,,,,214951.00,V,N*5E
$GNRMC,214952.00,V,,,,,,,090317,,,N*66
$GNVTG,,,,,,,,,N*2E
$GPGGA,214952.00,,,,,0,00,99.99,,,,,,*71
$GNGSA,A,1,,,,,,,,,,,,,99.99,99.99,99.99*2E
$GNGSA,A,1,,,,,,,,,,,,,99.99,99.99,99.99*2E
$GPGSV,2,1,06,07,,,37,08,,,26,09,,,20,16,,,26*7B
$GPGSV,2,2,06,23,,,30,27,,,29*73
$GLGSV,1,1,00*65
$GNGLL,,,,,214952.00,V,N*5D
$GNRMC,214953.00,V,,,,,,,090317,,,N*67
$GNVTG,,,,,,,,,N*2E
$GPGGA,214953.00,,,,,0,00,99.99,,,,,,*70
$GNGSA,A,1,,,,,,,,,,,,,99.99,99.99,99.99*2E
$GNGSA,A,1,,,,,,,,,,,,,99.99,99.99,99.99*2E
$GPGSV,2,1,06,07,,,38,08,,,25,09,,,20,16,,,26*77
$GPGSV,2,2,06,23,,,30,27,,,29*73
$GLGSV,1,1,00*65
$GNGLL,,,,,214953.00,V,N*5C
$GNRMC,214954.00,V,,,,,,,090317,,,N*60
$GNVTG,,,,,,,,,N*2E
$GPGGA,214954.00,,,,,0,00,99.99,,,,,,*77
$GNGSA,A,1,,,,,,,,,,,,,99.99,99.99,99.99*2E
$GNGSA,A,1,,,,,,,,,,,,,99.99,99.99,99.99*2E
$GPGSV,2,1,06,07,,,37,08,,,26,09,,,19,16,,,26*71
$GPGSV,2,2,06,23,,,30,27,,,29*73
$GLGSV,1,1,00*65
$GNGLL,,,,,214954.00,V,N*5B
$GNRMC,214955.00,V,,,,,,,090317,,,N*61
$GNVTG,,,,,,,,,N*2E
$GPGGA,214955.00,,,,,0,00,99.99,,,,,,*76
$GNGSA,A,1,,,,,,,,,,,,,99.99,99.99,99.99*2E
$GNGSA,A,1,,,,,,,,,,,,,99.99,99.99,99.99*2E
$GPGSV,2,1,06,07,,,38,08,,,26,09,,,18,16,,,26*7F
$GPGSV,2,2,06,23,,,30,27,,,29*73
$GLGSV,1,1,01,,,,29*6F
$GNGLL,,,,,214955.00,V,N*5A
$GNRMC,214956.00,V,,,,,,,090317,,,N*62
$GNVTG,,,,,,,,,N*2E
$GPGGA,214956.00,,,,,0,00,99.99,,,,,,*75
$GNGSA,A,1,,,,,,,,,,,,,99.99,99.99,99.99*2E
$GNGSA,A,1,,,,,,,,,,,,,99.99,99.99,99.99*2E
$GPGSV,2,1,06,07,,,38,08,,,26,09,,,18,16,,,26*7F
$GPGSV,2,2,06,23,,,30,27,,,28*72
$GLGSV,1,1,01,,,,30*67
$GNGLL,,,,,214956.00,V,N*59
$GNRMC,214957.00,V,,,,,,,090317,,,N*63
$GNVTG,,,,,,,,,N*2E
$GPGGA,214957.00,,,,,0,00,99.99,,,,,,*74
$GNGSA,A,1,,,,,,,,,,,,,99.99,99.99,99.99*2E
$GNGSA,A,1,,,,,,,,,,,,,99.99,99.99,99.99*2E
$GPGSV,2,1,06,07,,,40,08,,,33,09,,,17,16,,,31*7D
$GPGSV,2,2,06,23,,,31,27,,,19*71
$GLGSV,1,1,01,,,,30*67
$GNGLL,,,,,214957.00,V,N*58
$GNRMC,214958.00,V,,,,,,,090317,,,N*6C
$GNVTG,,,,,,,,,N*2E
$GPGGA,214958.00,,,,,0,00,99.99,,,,,,*7B
$GNGSA,A,1,,,,,,,,,,,,,99.99,99.99,99.99*2E
$GNGSA,A,1,,,,,,,,,,,,,99.99,99.99,99.99*2E
$GPGSV,2,1,06,07,,,40,08,,,32,09,,,19,16,,,29*7B
$GPGSV,2,2,06,23,,,32,27,,,21*79
$GLGSV,1,1,01,,,,30*67
$GNGLL,,,,,214958.00,V,N*57
$GNRMC,214959.00,V,,,,,,,090317,,,N*6D
$GNVTG,,,,,,,,,N*2E
$GPGGA,214959.00,,,,,0,00,99.99,,,,,,*7A
$GNGSA,A,1,,,,,,,,,,,,,99.99,99.99,99.99*2E
$GNGSA,A,1,,,,,,,,,,,,,99.99,99.99,99.99*2E
$GPGSV,2,1,06,07,,,40,08,,,31,09,,,20,16,,,27*7C
$GPGSV,2,2,06,23,,,33,27,,,25*7C
$GLGSV,1,1,01,,,,31*66
$GNGLL,,,,,214959.00,V,N*56
$GNRMC,215000.00,V,,,,,,,090317,,,N*69
$GNVTG,,,,,,,,,N*2E
$GPGGA,215000.00,,,,,0,00,99.99,,,,,,*7E
$GNGSA,A,1,,,,,,,,,,,,,99.99,99.99,99.99*2E
$GNGSA,A,1,,,,,,,,,,,,,99.99,99.99,99.99*2E
$GPGSV,2,1,06,07,,,40,08,,,31,09,,,21,16,,,26*7C
$GPGSV,2,2,06,23,,,33,27,,,23*7A
$GLGSV,1,1,01,,,,31*66
$GNGLL,,,,,215000.00,V,N*52
$GNRMC,215001.00,V,,,,,,,090317,,,N*68
$GNVTG,,,,,,,,,N*2E
$GPGGA,215001.00,,,,,0,00,99.99,,,,,,*7F
$GNGSA,A,1,,,,,,,,,,,,,99.99,99.99,99.99*2E
$GNGSA,A,1,,,,,,,,,,,,,99.99,99.99,99.99*2E
$GPGSV,2,1,06,07,,,40,08,,,32,09,,,23,16,,,25*7E
$GPGSV,2,2,06,23,,,33,27,,,21*78
$GLGSV,1,1,01,,,,31*66
$GNGLL,,,,,215001.00,V,N*53
$GNRMC,215002.00,A,4020.76849,N,07439.39744,W,0.096,,090317,,,A*7D
$GNVTG,,T,,M,0.096,N,0.177,K,A*33
$GPGGA,215002.00,4020.76849,N,07439.39744,W,1,03,3.86,0.5,M,-34.5,M,,*76
$GNGSA,A,2,08,07,23,,,,,,,,,,3.99,3.86,1.00*1C
$GNGSA,A,2,,,,,,,,,,,,,3.99,3.86,1.00*12
$GPGSV,2,1,06,07,46,312,40,08,65,183,34,09,,,20,16,,,25*70
$GPGSV,2,2,06,23,36,205,33,27,,,22*49
$GLGSV,1,1,01,,,,29*6F
$GNGLL,4020.76849,N,07439.39744,W,215002.00,A,A*67
$GNRMC,215003.00,V,,,,,,,090317,,,N*6A
$GNVTG,,,,,,,,,N*2E
$GPGGA,215003.00,,,,,0,03,3.86,,,,,,*43
$GNGSA,A,1,08,07,23,,,,,,,,,,3.99,3.86,1.00*1F
$GNGSA,A,1,,,,,,,,,,,,,3.99,3.86,1.00*11
$GPGSV,2,1,06,07,46,312,38,08,65,183,34,09,,,19,16,,,31*70
$GPGSV,2,2,06,23,36,205,33,27,,,21*4A
$GLGSV,1,1,01,,,,28*6E
$GNGLL,,,,,215003.00,V,N*51
$GNRMC,215004.00,A,4020.76818,N,07439.39868,W,1.795,65.13,090317,,,A*54
$GNVTG,65.13,T,,M,1.795,N,3.325,K,A*1F
$GPGGA,215004.00,4020.76818,N,07439.39868,W,1,03,3.86,-0.4,M,-34.5,M,,*59
$GNGSA,A,2,08,07,23,,,,,,,,,,3.99,3.86,1.00*1C
$GNGSA,A,2,,,,,,,,,,,,,3.99,3.86,1.00*12
$GPGSV,2,1,06,07,46,312,38,08,65,183,33,09,,,18,16,,,29*7F
$GPGSV,2,2,06,23,36,205,31,27,,,21*48
$GLGSV,1,1,02,,,,31,,,,29*6E
$GNGLL,4020.76818,N,07439.39868,W,215004.00,A,A*64
$GNRMC,215005.00,A,4020.76832,N,07439.39831,W,1.588,69.67,090317,,,A*50
$GNVTG,69.67,T,,M,1.588,N,2.942,K,A*14
$GPGGA,215005.00,4020.76832,N,07439.39831,W,1,03,3.86,0.3,M,-34.5,M,,*76
$GNGSA,A,2,08,07,23,,,,,,,,,,3.99,3.86,1.00*1C
$GNGSA,A,2,,,,,,,,,,,,,3.99,3.86,1.00*12
$GPGSV,2,1,06,07,46,312,40,08,65,183,30,09,,,20,16,,,27*76
$GPGSV,2,2,06,23,36,205,33,27,,,21*4A
$GLGSV,1,1,02,,,,31,,,,30*66
$GNGLL,4020.76832,N,07439.39831,W,215005.00,A,A*61
$GNRMC,215006.00,A,4020.76831,N,07439.39818,W,1.482,74.15,090317,,,A*59
$GNVTG,74.15,T,,M,1.482,N,2.745,K,A*1F
$GPGGA,215006.00,4020.76831,N,07439.39818,W,1,03,3.86,1.0,M,-34.5,M,,*7F
$GNGSA,A,2,08,07,23,,,,,,,,,,3.99,3.86,1.00*1C
$GNGSA,A,2,,,,,,,,,,,,,3.99,3.86,1.00*12
$GPGSV,2,1,06,07,46,312,41,08,65,183,30,09,,,21,16,,,26*77
$GPGSV,2,2,06,23,36,205,33,27,,,24*4F
$GLGSV,1,1,02,,,,31,,,,28*6F
$GNGLL,4020.76831,N,07439.39818,W,215006.00,A,A*6A
$GNRMC,215007.00,A,4020.76819,N,07439.39839,W,1.177,75.63,090317,,,A*5E
$GNVTG,75.63,T,,M,1.177,N,2.179,K,A*19
$GPGGA,215007.00,4020.76819,N,07439.39839,W,1,03,3.86,1.6,M,-34.5,M,,*71
$GNGSA,A,2,08,07,23,,,,,,,,,,3.99,3.86,1.00*1C
$GNGSA,A,2,,,,,,,,,,,,,3.99,3.86,1.00*12
$GPGSV,2,1,06,07,46,312,41,08,65,183,30,09,,,23,16,,,26*75
$GPGSV,2,2,06,23,36,205,33,27,,,24*4F
$GLGSV,1,1,02,,,,31,,,,28*6F
$GNGLL,4020.76819,N,07439.39839,W,215007.00,A,A*62
$GNRMC,215008.00,A,4020.76817,N,07439.39825,W,0.725,,090317,,,A*7B
$GNVTG,,T,,M,0.725,N,1.343,K,A*38
$GPGGA,215008.00,4020.76817,N,07439.39825,W,1,03,3.86,1.6,M,-34.5,M,,*7D
$GNGSA,A,2,08,07,23,,,,,,,,,,3.99,3.86,1.00*1C
$GNGSA,A,2,,,,,,,,,,,,,3.99,3.86,1.00*12
$GPGSV,2,1,06,07,46,312,41,08,65,183,31,09,,,24,16,,,25*70
$GPGSV,2,2,06,23,36,205,34,27,,,24*48
$GLGSV,1,1,02,,,,31,,,,28*6F
$GNGLL,4020.76817,N,07439.39825,W,215008.00,A,A*6E
$GNRMC,215009.00,A,4020.76799,N,07439.39849,W,0.682,,090317,,,A*75
$GNVTG,,T,,M,0.682,N,1.264,K,A*30
$GPGGA,215009.00,4020.76799,N,07439.39849,W,1,03,3.86,1.8,M,-34.5,M,,*71
$GNGSA,A,2,08,07,23,,,,,,,,,,3.99,3.86,1.00*1C
$GNGSA,A,2,,,,,,,,,,,,,3.99,3.86,1.00*12
$GPGSV,2,1,06,07,46,312,41,08,65,183,30,09,,,25,16,,,25*70
$GPGSV,2,2,06,23,36,205,33,27,,,23*48
$GLGSV,1,1,03,,,,31,,,,31,,,,28*6C
$GNGLL,4020.76799,N,07439.39849,W,215009.00,A,A*6C
$GNRMC,215010.00,A,4020.76792,N,07439.39871,W,0.970,75.30,090317,,,A*50
$GNVTG,75.30,T,,M,0.970,N,1.796,K,A*15
$GPGGA,215010.00,4020.76792,N,07439.39871,W,1,03,3.86,1.6,M,-34.5,M,,*77
$GNGSA,A,2,08,07,23,,,,,,,,,,3.99,3.86,1.00*1C
$GNGSA,A,2,,,,,,,,,,,,,3.99,3.86,1.00*12
$GPGSV,2,1,06,07,46,312,41,08,65,183,31,09,,,25,16,,,25*71
$GPGSV,2,2,06,23,36,205,33,27,,,22*49
$GLGSV,1,1,04,,,,31,,,,28,,,,30,,,,29*61
$GNGLL,4020.76792,N,07439.39871,W,215010.00,A,A*64
$GNRMC,215011.00,A,4020.76783,N,07439.39925,W,0.747,,090317,,,A*74
$GNVTG,,T,,M,0.747,N,1.384,K,A*37
$GPGGA,215011.00,4020.76783,N,07439.39925,W,1,03,3.86,1.1,M,-34.5,M,,*71
$GNGSA,A,2,08,07,23,,,,,,,,,,3.99,3.86,1.00*1C
$GNGSA,A,2,,,,,,,,,,,,,3.99,3.86,1.00*12
$GPGSV,2,1,06,07,46,312,37,08,65,183,34,09,,,25,16,,,26*76
$GPGSV,2,2,06,23,36,205,32,27,,,21*4B
$GLGSV,1,1,04,74,,,31,,,,28,,,,30,,,,29*62
$GNGLL,4020.76783,N,07439.39925,W,215011.00,A,A*65
$GNRMC,215012.00,A,4020.76778,N,07439.39960,W,1.261,74.46,090317,,,A*5D
$GNVTG,74.46,T,,M,1.261,N,2.336,K,A*12
$GPGGA,215012.00,4020.76778,N,07439.39960,W,1,03,3.86,1.3,M,-34.5,M,,*75
$GNGSA,A,2,08,07,23,,,,,,,,,,3.99,3.86,1.00*1C
$GNGSA,A,2,,,,,,,,,,,,,3.99,3.86,1.00*12
$GPGSV,2,1,06,07,46,312,40,08,65,183,33,09,,,25,16,,,23*74
$GPGSV,2,2,06,23,36,205,32,27,,,22*48
$GLGSV,1,1,04,74,,,30,,,,28,,,,29,,,,29*6B
$GNGLL,4020.76778,N,07439.39960,W,215012.00,A,A*63
$GNRMC,215013.00,A,4020.76777,N,07439.39939,W,0.953,76.01,090317,,,A*55
$GNVTG,76.01,T,,M,0.953,N,1.764,K,A*18
$GPGGA,215013.00,4020.76777,N,07439.39939,W,1,03,3.86,1.6,M,-34.5,M,,*72
$GNGSA,A,2,08,07,23,,,,,,,,,,3.99,3.86,1.00*1C
$GNGSA,A,2,,,,,,,,,,,,,3.99,3.86,1.00*12
$GPGSV,2,1,06,07,46,312,41,08,65,183,31,09,,,26,16,,,21*76
$GPGSV,2,2,06,23,36,205,32,27,,,25*4F
$GLGSV,1,1,04,74,,,30,,,,28,,,,29,,,,29*6B
$GNGLL,4020.76777,N,07439.39939,W,215013.00,A,A*61
$GNRMC,215014.00,A,4020.76780,N,07439.39913,W,0.498,,090317,,,A*76
$GNVTG,,T,,M,0.498,N,0.922,K,A*31
$GPGGA,215014.00,4020.76780,N,07439.39913,W,1,03,3.86,2.4,M,-34.5,M,,*74
$GNGSA,A,2,08,07,23,,,,,,,,,,3.99,3.86,1.00*1C
$GNGSA,A,2,,,,,,,,,,,,,3.99,3.86,1.00*12
$GPGSV,2,1,06,07,46,312,41,08,65,183,31,09,,,27,16,,,20*76
$GPGSV,2,2,06,23,36,205,33,27,,,25*4E
$GLGSV,1,1,04,74,,,29,,,,28,,,,30,,,,28*6A
$GNGLL,4020.76780,N,07439.39913,W,215014.00,A,A*66
$GNRMC,215015.00,A,4020.76779,N,07439.39930,W,0.601,,090317,,,A*72
$GNVTG,,T,,M,0.601,N,1.112,K,A*39
$GPGGA,215015.00,4020.76779,N,07439.39930,W,1,03,3.86,2.1,M,-34.5,M,,*77
$GNGSA,A,2,08,07,23,,,,,,,,,,3.99,3.86,1.00*1C
$GNGSA,A,2,,,,,,,,,,,,,3.99,3.86,1.00*12
$GPGSV,2,1,06,07,46,312,42,08,65,183,32,09,,,28,16,36,058,23*42
$GPGSV,2,2,06,23,36,205,34,27,,,26*4A
$GLGSV,2,1,05,74,,,29,,,,29,,,,30,,,,29*68
$GLGSV,2,2,05,,,,29*6B
$GNGLL,4020.76779,N,07439.39930,W,215015.00,A,A*60
$GNRMC,215016.00,A,4020.76781,N,07439.39911,W,0.921,77.04,090317,,,A*52
$GNVTG,77.04,T,,M,0.921,N,1.706,K,A*1D
$GPGGA,215016.00,4020.76781,N,07439.39911,W,1,03,3.86,2.0,M,-34.5,M,,*71
$GNGSA,A,2,08,07,23,,,,,,,,,,3.99,3.86,1.00*1C
$GNGSA,A,2,,,,,,,,,,,,,3.99,3.86,1.00*12
$GPGSV,2,1,06,07,46,312,42,08,65,183,32,09,,,28,16,36,058,25*44
$GPGSV,2,2,06,23,36,205,34,27,,,26*4A
$GLGSV,2,1,05,74,,,29,,,,29,,,,31,,,,29*69
$GLGSV,2,2,05,,,,29*6B
$GNGLL,4020.76781,N,07439.39911,W,215016.00,A,A*67
$GNRMC,215017.00,A,4020.76781,N,07439.39914,W,0.947,76.42,090317,,,A*55
$GNVTG,76.42,T,,M,0.947,N,1.755,K,A*18
$GPGGA,215017.00,4020.76781,N,07439.39914,W,1,03,3.86,1.8,M,-34.5,M,,*7E
$GNGSA,A,2,08,07,23,,,,,,,,,,3.99,3.86,1.00*1C
$GNGSA,A,2,,,,,,,,,,,,,3.99,3.86,1.00*12
$GPGSV,2,1,06,07,46,312,42,08,65,183,32,09,,,29,16,36,058,25*45
$GPGSV,2,2,06,23,36,205,34,27,,,27*4B
$GLGSV,2,1,05,74,,,29,,,,29,,,,30,,,,29*68
$GLGSV,2,2,05,,,,29*6B
$GNGLL,4020.76781,N,07439.39914,W,215017.00,A,A*63
$GNRMC,215018.00,A,4020.76782,N,07439.39901,W,0.817,,090317,,,A*70
$GNVTG,,T,,M,0.817,N,1.512,K,A*34
$GPGGA,215018.00,4020.76782,N,07439.39901,W,1,03,3.86,2.1,M,-34.5,M,,*7C
$GNGSA,A,2,08,07,23,,,,,,,,,,3.99,3.86,1.00*1C
$GNGSA,A,2,,,,,,,,,,,,,3.99,3.86,1.00*12
$GPGSV,2,1,06,07,46,312,41,08,65,183,32,09,,,20,16,36,058,24*4E
$GPGSV,2,2,06,23,36,205,34,27,,,25*49
$GLGSV,2,1,05,74,,,28,,,,28,,,,30,,,,28*69
$GLGSV,2,2,05,,,,28*6A
$GNGLL,4020.76782,N,07439.39901,W,215018.00,A,A*6B
$GNRMC,215019.00,A,4020.76781,N,07439.39905,W,0.889,75.46,090317,,,A*5F
$GNVTG,75.46,T,,M,0.889,N,1.646,K,A*1F
$GPGGA,215019.00,4020.76781,N,07439.39905,W,1,03,3.86,2.0,M,-34.5,M,,*7B
$GNGSA,A,2,08,07,23,,,,,,,,,,3.99,3.86,1.00*1C
$GNGSA,A,2,,,,,,,,,,,,,3.99,3.86,1.00*12
$GPGSV,2,1,06,07,46,312,42,08,65,183,33,09,,,19,16,36,058,24*46
$GPGSV,2,2,06,23,36,205,34,27,,,24*48
$GLGSV,2,1,05,74,,,26,,,,27,,,,28,,,,30*68
$GLGSV,2,2,05,,,,27*65
$GNGLL,4020.76781,N,07439.39905,W,215019.00,A,A*6D
$GNRMC,215020.00,A,4020.76782,N,07439.39905,W,0.784,,090317,,,A*7A
$GNVTG,,T,,M,0.784,N,1.452,K,A*34
$GPGGA,215020.00,4020.76782,N,07439.39905,W,1,03,3.86,2.4,M,-34.5,M,,*76
$GNGSA,A,2,08,07,23,,,,,,,,,,3.99,3.86,1.00*1C
$GNGSA,A,2,,,,,,,,,,,,,3.99,3.86,1.00*12
$GPGSV,2,1,06,07,46,312,42,08,65,183,33,09,,,18,16,36,058,24*47
$GPGSV,2,2,06,23,36,205,34,27,,,23*4F
$GLGSV,2,1,05,74,,,23,,,,27,,,,28,,,,31*6C
$GLGSV,2,2,05,,,,27*65
$GNGLL,4020.76782,N,07439.39905,W,215020.00,A,A*64
$GNRMC,215021.00,A,4020.76781,N,07439.39915,W,0.595,,090317,,,A*7B
$GNVTG,,T,,M,0.595,N,1.102,K,A*36
$GPGGA,215021.00,4020.76781,N,07439.39915,W,1,03,3.86,2.6,M,-34.5,M,,*77
$GNGSA,A,2,08,07,23,,,,,,,,,,3.98,3.86,1.00*1D
$GNGSA,A,2,,,,,,,,,,,,,3.98,3.86,1.00*13
$GPGSV,2,1,06,07,46,312,42,08,65,183,33,09,,,17,16,36,058,24*48
$GPGSV,2,2,06,23,36,205,34,27,,,23*4F
$GLGSV,2,1,05,74,,,22,,,,27,,,,28,,,,31*6D
$GLGSV,2,2,05,,,,27*65
$GNGLL,4020.76781,N,07439.39915,W,215021.00,A,A*67
$GNRMC,215022.00,A,4020.76780,N,07439.39922,W,0.454,,090317,,,A*71
$GNVTG,,T,,M,0.454,N,0.842,K,A*36
$GPGGA,215022.00,4020.76780,N,07439.39922,W,1,03,3.86,2.4,M,-34.5,M,,*73
$GNGSA,A,2,08,07,23,,,,,,,,,,3.98,3.86,1.00*1D
$GNGSA,A,2,,,,,,,,,,,,,3.98,3.86,1.00*13
$GPGSV,2,1,06,07,46,312,40,08,65,183,33,09,,,22,16,36,058,22*4A
$GPGSV,2,2,06,23,35,205,33,27,,,25*4D
$GLGSV,2,1,05,74,,,25,,,,27,,,,29,,,,26*6D
$GLGSV,2,2,05,,,,27*65
$GNGLL,4020.76780,N,07439.39922,W,215022.00,A,A*61
$GNRMC,215023.00,A,4020.76780,N,07439.39930,W,0.822,,090317,,,A*7E
$GNVTG,,T,,M,0.822,N,1.523,K,A*30
$GPGGA,215023.00,4020.76780,N,07439.39930,W,1,03,3.86,2.4,M,-34.5,M,,*71
$GNGSA,A,2,08,07,23,,,,,,,,,,3.98,3.86,1.00*1D
$GNGSA,A,2,,,,,,,,,,,,,3.98,3.86,1.00*13
$GPGSV,2,1,06,07,46,312,39,08,65,183,33,09,,,22,16,36,058,21*47
$GPGSV,2,2,06,23,35,205,31,27,,,27*4D
$GLGSV,2,1,05,74,,,29,,,,26,,,,29,,,,28*6E
$GLGSV,2,2,05,,,,26*64
$GNGLL,4020.76780,N,07439.39930,W,215023.00,A,A*63
$GNRMC,215024.00,A,4020.76783,N,07439.39918,W,1.637,75.84,090317,,,A*5B
$GNVTG,75.84,T,,M,1.637,N,3.032,K,A*1C
$GPGGA,215024.00,4020.76783,N,07439.39918,W,1,03,3.86,2.6,M,-34.5,M,,*7D
$GNGSA,A,2,08,07,23,,,,,,,,,,3.98,3.86,1.00*1D
$GNGSA,A,2,,,,,,,,,,,,,3.98,3.86,1.00*13
$GPGSV,2,1,06,07,46,312,40,08,65,183,32,09,,,21,16,36,058,20*4A
$GPGSV,2,2,06,23,35,205,30,27,,,25*4E
$GLGSV,2,1,05,74,,,28,,,,27,,,,28,,,,27*60
$GLGSV,2,2,05,,,,27*65
$GNGLL,4020.76783,N,07439.39918,W,215024.00,A,A*6D
$GNRMC,215025.00,A,4020.76794,N,07439.39815,W,3.437,81.37,090317,,,A*53
$GNVTG,81.37,T,,M,3.437,N,6.365,K,A*1B
$GPGGA,215025.00,4020.76794,N,07439.39815,W,1,03,3.86,2.5,M,-34.5,M,,*75
$GNGSA,A,2,08,07,23,,,,,,,,,,3.98,3.86,1.00*1D
$GNGSA,A,2,,,,,,,,,,,,,3.98,3.86,1.00*13
$GPGSV,2,1,06,07,46,312,30,08,65,183,26,09,,,34,16,36,058,33*4E
$GPGSV,2,2,06,23,35,205,30,27,,,34*4E
$GLGSV,2,1,05,74,,,26,,,,25,,,,27,,,,24*60
$GLGSV,2,2,05,,,,25*67
$GNGLL,4020.76794,N,07439.39815,W,215025.00,A,A*66
$GNRMC,215026.00,A,4020.76797,N,07439.39694,W,3.179,,090317,,,A*78
$GNVTG,,T,,M,3.179,N,5.887,K,A*33
$GPGGA,215026.00,4020.76797,N,07439.39694,W,1,03,3.86,3.8,M,-34.5,M,,*7E
$GNGSA,A,2,08,07,23,,,,,,,,,,3.98,3.86,1.00*1D
$GNGSA,A,2,,,,,,,,,,,,,3.98,3.86,1.00*13
$GPGSV,2,1,06,07,46,312,29,08,65,183,24,09,,,30,16,36,058,22*40
$GPGSV,2,2,06,23,35,205,22,27,,,24*4C
$GLGSV,2,1,05,74,,,25,,,,23,,,,24,,,,22*60
$GLGSV,2,2,05,,,,23*61
$GNGLL,4020.76797,N,07439.39694,W,215026.00,A,A*61
$GNRMC,215027.00,A,4020.76814,N,07439.39615,W,3.121,,090317,,,A*79
$GNVTG,,T,,M,3.121,N,5.780,K,A*36
$GPGGA,215027.00,4020.76814,N,07439.39615,W,1,03,3.85,4.9,M,-34.5,M,,*77
$GNGSA,A,2,08,07,23,,,,,,,,,,3.98,3.85,1.00*1E
$GNGSA,A,2,,,,,,,,,,,,,3.98,3.85,1.00*10
$GPGSV,2,1,06,07,46,312,33,08,65,183,26,09,,,24,16,36,058,24*4A
$GPGSV,2,2,06,23,35,205,23,27,,,24*4D
$GLGSV,2,1,05,74,,,21,,,,23,,,,24,,,,24*62
$GLGSV,2,2,05,,,,23*61
$GNGLL,4020.76814,N,07439.39615,W,215027.00,A,A*6D
$GNRMC,215028.00,A,4020.76857,N,07439.39592,W,3.126,73.49,090317,,,A*5D
$GNVTG,73.49,T,,M,3.126,N,5.789,K,A*1F
$GPGGA,215028.00,4020.76857,N,07439.39592,W,1,03,3.85,6.0,M,-34.5,M,,*78
$GNGSA,A,2,08,07,23,,,,,,,,,,3.98,3.85,1.00*1E
$GNGSA,A,2,,,,,,,,,,,,,3.98,3.85,1.00*10
$GPGSV,2,1,06,07,46,312,32,08,65,183,27,09,,,26,16,36,058,26*4A
$GPGSV,2,2,06,23,35,205,24,27,,,24*4A
$GLGSV,2,1,05,74,,,19,,,,24,,,,23,,,,24*69
$GLGSV,2,2,05,,,,24*66
$GNGLL,4020.76857,N,07439.39592,W,215028.00,A,A*69
$GNRMC,215029.00,A,4020.76871,N,07439.39564,W,2.918,68.99,090317,,,A*52
$GNVTG,68.99,T,,M,2.918,N,5.405,K,A*1B
$GPGGA,215029.00,4020.76871,N,07439.39564,W,1,03,3.85,6.2,M,-34.5,M,,*76
$GNGSA,A,2,08,07,23,,,,,,,,,,3.98,3.85,1.00*1E
$GNGSA,A,2,,,,,,,,,,,,,3.98,3.85,1.00*10
$GPGSV,2,1,06,07,46,312,32,08,65,183,27,09,,,27,16,36,058,27*4A
$GPGSV,2,2,06,23,35,205,24,27,,,24*4A
$GLGSV,2,1,05,74,,,17,,,,24,,,,22,,,,25*67
$GLGSV,2,2,05,,,,24*66
$GNGLL,4020.76871,N,07439.39564,W,215029.00,A,A*65
$GNRMC,215030.00,A,4020.76844,N,07439.39636,W,1.758,68.33,090317,,,A*51
$GNVTG,68.33,T,,M,1.758,N,3.255,K,A*17
$GPGGA,215030.00,4020.76844,N,07439.39636,W,1,03,3.85,3.4,M,-34.5,M,,*7F
$GNGSA,A,2,08,07,23,,,,,,,,,,3.98,3.85,1.00*1E
$GNGSA,A,2,,,,,,,,,,,,,3.98,3.85,1.00*10
$GPGSV,2,1,06,07,46,312,32,08,65,183,28,09,,,28,16,36,058,27*4A
$GPGSV,2,2,06,23,35,205,25,27,,,24*4B
$GLGSV,2,1,05,74,,,17,,,,24,,,,22,,,,26*64
$GLGSV,2,2,05,,,,24*66
$GNGLL,4020.76844,N,07439.39636,W,215030.00,A,A*6F
$GNRMC,215031.00,A,4020.76829,N,07439.39677,W,1.583,66.26,090317,,,A*50
$GNVTG,66.26,T,,M,1.583,N,2.933,K,A*13
$GPGGA,215031.00,4020.76829,N,07439.39677,W,1,03,3.85,4.0,M,-34.5,M,,*73
$GNGSA,A,2,08,07,23,,,,,,,,,,3.98,3.85,1.00*1E
$GNGSA,A,2,,,,,,,,,,,,,3.98,3.85,1.00*10
$GPGSV,2,1,06,07,46,312,31,08,65,183,28,09,,,28,16,36,058,27*49
$GPGSV,2,2,06,23,35,205,25,27,,,24*4B
$GLGSV,2,1,05,74,,,17,,,,23,,,,22,,,,26*63
$GLGSV,2,2,05,,,,23*61
$GNGLL,4020.76829,N,07439.39677,W,215031.00,A,A*60
$GNRMC,215032.00,A,4020.76825,N,07439.39692,W,1.337,,090317,,,A*77
$GNVTG,,T,,M,1.337,N,2.476,K,A*3C
$GPGGA,215032.00,4020.76825,N,07439.39692,W,1,03,3.85,4.2,M,-34.5,M,,*75
$GNGSA,A,2,08,07,23,,,,,,,,,,3.98,3.85,1.00*1E
$GNGSA,A,2,,,,,,,,,,,,,3.98,3.85,1.00*10
$GPGSV,2,1,06,07,46,312,32,08,65,183,28,09,,,28,16,36,058,27*4A
$GPGSV,2,2,06,23,35,205,25,27,,,24*4B
$GLGSV,2,1,05,74,,,18,,,,23,,,,22,,,,26*6C
$GLGSV,2,2,05,,,,23*61
$GNGLL,4020.76825,N,07439.39692,W,215032.00,A,A*64
$GNRMC,215033.00,A,4020.76822,N,07439.39696,W,0.540,,090317,,,A*72
$GNVTG,,T,,M,0.540,N,1.000,K,A*3D
$GPGGA,215033.00,4020.76822,N,07439.39696,W,1,03,3.85,5.8,M,-34.5,M,,*7C
$GNGSA,A,2,08,07,23,,,,,,,,,,3.98,3.85,1.00*1E
$GNGSA,A,2,,,,,,,,,,,,,3.98,3.85,1.00*10
$GPGSV,2,1,06,07,46,312,32,08,65,183,27,09,,,27,16,36,058,28*45
$GPGSV,2,2,06,23,35,205,25,27,,,24*4B
$GLGSV,2,1,05,74,,,19,,,,24,,,,22,,,,26*6A
$GLGSV,2,2,05,,,,24*66
$GNGLL,4020.76822,N,07439.39696,W,215033.00,A,A*66
$GNRMC,215034.00,A,4020.76814,N,07439.39712,W,0.238,,090317,,,A*75
$GNVTG,,T,,M,0.238,N,0.441,K,A*35
$GPGGA,215034.00,4020.76814,N,07439.39712,W,1,03,3.85,5.3,M,-34.5,M,,*78
$GNGSA,A,2,08,07,23,,,,,,,,,,3.98,3.85,1.00*1E
$GNGSA,A,2,,,,,,,,,,,,,3.98,3.85,1.00*10
$GPGSV,2,1,06,07,46,312,32,08,65,183,27,09,,,27,16,36,058,27*4A
$GPGSV,2,2,06,23,35,205,24,27,,,24*4A
$GLGSV,2,1,05,74,,,19,,,,24,,,,22,,,,25*69
$GLGSV,2,2,05,,,,24*66
$GNGLL,4020.76814,N,07439.39712,W,215034.00,A,A*69
$GNRMC,215035.00,A,4020.76806,N,07439.39728,W,0.396,,090317,,,A*7B
$GNVTG,,T,,M,0.396,N,0.734,K,A*31
$GPGGA,215035.00,4020.76806,N,07439.39728,W,1,03,3.85,4.8,M,-34.5,M,,*79
$GNGSA,A,2,08,07,23,,,,,,,,,,3.98,3.85,1.00*1E
$GNGSA,A,2,,,,,,,,,,,,,3.98,3.85,1.00*10
$GPGSV,2,1,06,07,46,312,32,08,65,183,27,09,,,27,16,36,058,27*4A
$GPGSV,2,2,06,23,35,205,24,27,,,23*4D
$GLGSV,2,1,05,74,,,20,,,,25,,,,23,,,,24*62
$GLGSV,2,2,05,,,,25*67
$GNGLL,4020.76806,N,07439.39728,W,215035.00,A,A*62
